{"@id":"https://w3id.org/Apollos2.0","type":"FeatureCollection","@context":"https://w3id.org/locolligo/contexts/linkedplaces.jsonld","features":[{"@id":"https://w3id.org/Apollos2.0/c1a6a069-0f4f-41d9-850e-5e99d759d482","type":"Feature","properties":{"title":"Assos/Apollonia"},"geometry":{"type":"Point","coordinates":[26.337061,39.490601]}},{"@id":"https://w3id.org/Apollos2.0/e6fe6e43-a575-4861-a530-298b5b329cc1","type":"Feature","properties":{"title":"Apollonopolis Magna"},"geometry":{"type":"Point","coordinates":[32.872092,24.977575]}},{"@id":"https://w3id.org/Apollos2.0/158d9584-85d3-4e1a-b62e-6f6b57ae3bd3","type":"Feature","properties":{"title":"Miletopolitis/Apolloniatis/Artynia L."},"geometry":{"type":"Point","coordinates":[28.583333,40.166667]}},{"@id":"https://w3id.org/Apollos2.0/39fcd984-cee5-473d-bc48-eba767d5279c","type":"Feature","properties":{"title":"Apollonopolis Parva/Diocletianopolis"},"geometry":{"type":"Point","coordinates":[32.710142,25.854553]}},{"@id":"https://w3id.org/Apollos2.0/559160fc-b8e0-4158-97cc-95ff6fb26763","type":"Feature","properties":{"title":"Apollonia"},"geometry":{"type":"Point","coordinates":[14.5956489,38.0324655]}}],"indexing":{"@type":"Dataset","name":"Apollos2.0","description":"","license":"https://creativecommons.org/licenses/by/4.0/","identifier":"https://w3id.org/Apollos2.0","temporalCoverage":"1066/2022","spatialCoverage":{"@type":"GeoShape","box":"0.580101 0.00149 60.355 9.78667","geo":{"@type":"GeoShape","box":"24.977575 14.5956489 40.166667 32.872092"}}}}