{"@id":"https://w3id.org/Apollos2.0","type":"FeatureCollection","@context":"https://w3id.org/locolligo/contexts/linkedplaces.jsonld","features":[{"@id":"https://w3id.org/Apollos2.0/e13429b3-fa88-431e-90df-5254258f8aca","type":"Feature","properties":{"title":"Assos/Apollonia","url":"https://pleiades.stoa.org/places/550463"},"geometry":{"type":"Point","coordinates":[26.337061,39.490601]},"depictions":[{"@id":"https://upload.wikimedia.org/wikipedia/commons/d/dd/Temple_of_Athena%2C_Assos_1.jpg"}]},{"@id":"https://w3id.org/Apollos2.0/0c884ba1-7b0f-4b7b-aa9e-84ab24fe2617","type":"Feature","properties":{"title":"Apollonopolis Magna","url":"https://pleiades.stoa.org/places/785974"},"geometry":{"type":"Point","coordinates":[32.872092,24.977575]},"depictions":[{"@id":"https://upload.wikimedia.org/wikipedia/commons/thumb/3/37/Edfu_Tempel_14.jpg/320px-Edfu_Tempel_14.jpg"}]},{"@id":"https://w3id.org/Apollos2.0/c5fb4a35-ec47-43e7-85f2-357f57103944","type":"Feature","properties":{"title":"Miletopolitis/Apolloniatis/Artynia L.","url":"https://pleiades.stoa.org/places/511319"},"geometry":{"type":"Point","coordinates":[28.583333,40.166667]},"depictions":[{"@id":"https://upload.wikimedia.org/wikipedia/commons/thumb/6/6e/Lake_Uluabat_-_Boatman.jpg/320px-Lake_Uluabat_-_Boatman.jpg"}]},{"@id":"https://w3id.org/Apollos2.0/8375851a-9402-4edd-b3fd-cb05182bb8c5","type":"Feature","properties":{"title":"Apollonopolis Parva/Diocletianopolis","url":"https://pleiades.stoa.org/places/785975"},"geometry":{"type":"Point","coordinates":[32.710142,25.854553]},"depictions":[{"@id":"https://upload.wikimedia.org/wikipedia/commons/thumb/0/01/QusWesternPylonNorthernPost.jpg/320px-QusWesternPylonNorthernPost.jpg"}]},{"@id":"https://w3id.org/Apollos2.0/f4ae7027-a08a-4c43-b013-630555de20ca","type":"Feature","properties":{"title":"Apollonia","url":"https://pleiades.stoa.org/places/462097"},"geometry":{"type":"Point","coordinates":[14.5956489,38.0324655]},"depictions":[{"@id":"https://upload.wikimedia.org/wikipedia/commons/thumb/d/d8/Apollonia_di_Sicilia_05.jpg/320px-Apollonia_di_Sicilia_05.jpg"}]}],"indexing":{"@type":"Dataset","name":"Apollos2.0","description":"","license":"https://creativecommons.org/licenses/by/4.0/","identifier":"https://w3id.org/Apollos2.0","temporalCoverage":"1066/2022","spatialCoverage":{"@type":"GeoShape","box":"0.580101 0.00149 60.355 9.78667","geo":{"@type":"GeoShape","box":"24.977575 14.5956489 40.166667 32.872092"}}}}