{"data":[{"title":"Assos/Apollonia","longitude":26.337061,"latitude":39.490601,"url":"https://pleiades.stoa.org/places/550463","depictions":"https://upload.wikimedia.org/wikipedia/commons/d/dd/Temple_of_Athena%2C_Assos_1.jpg","uuid":"39081717-3d6f-4e72-9ccc-cd9324c115ae","@id":"https://w3id.org/locolligo/dda6e180-0651-4864-9745-019e9f6b7d00/39081717-3d6f-4e72-9ccc-cd9324c115ae"},{"title":"Apollonopolis Magna","longitude":32.872092,"latitude":24.977575,"url":"https://pleiades.stoa.org/places/785974","depictions":"https://en.wikipedia.org/wiki/Edfu#/media/File:Temple_Edfou_Egypte.jpg","uuid":"865063ef-3729-4f84-85a1-87f022c68d33","@id":"https://w3id.org/locolligo/dda6e180-0651-4864-9745-019e9f6b7d00/865063ef-3729-4f84-85a1-87f022c68d33"},{"title":"Miletopolitis/Apolloniatis/Artynia L.","longitude":28.583333,"latitude":40.166667,"url":"https://pleiades.stoa.org/places/511319","depictions":"https://en.wikipedia.org/wiki/Lake_Uluabat#/media/File:Uykuda.jpg","uuid":"caa593c9-52c2-447e-a80c-79612d50d116","@id":"https://w3id.org/locolligo/dda6e180-0651-4864-9745-019e9f6b7d00/caa593c9-52c2-447e-a80c-79612d50d116"},{"title":"Apollonopolis Parva/Diocletianopolis","longitude":32.710142,"latitude":25.854553,"url":"https://pleiades.stoa.org/places/785975","depictions":"https://en.wikipedia.org/wiki/Qus#/media/File:Qus.jpg","uuid":"0b5ff9f4-f329-4f4f-9dd1-6b8ea6d9dcbb","@id":"https://w3id.org/locolligo/dda6e180-0651-4864-9745-019e9f6b7d00/0b5ff9f4-f329-4f4f-9dd1-6b8ea6d9dcbb"},{"title":"Apollonia","longitude":14.5956489,"latitude":38.0324655,"url":"https://pleiades.stoa.org/places/462097","depictions":"https://en.wikipedia.org/wiki/Apollonia_(Sicily)#/media/File:Apollonia_di_Sicilia_05.jpg","uuid":"97352200-7ed1-430e-a789-882ae1ada5cc","@id":"https://w3id.org/locolligo/dda6e180-0651-4864-9745-019e9f6b7d00/97352200-7ed1-430e-a789-882ae1ada5cc"}],"errors":[],"meta":{"delimiter":",","linebreak":"\r\n","aborted":false,"truncated":false,"cursor":831,"fields":["title","longitude","latitude","url","depictions"],"filename":"Apollos2.0.csv"},"@id":"https://w3id.org/locolligo/dda6e180-0651-4864-9745-019e9f6b7d00"}